[
  {
    "zip": "98107",
    "phone": "(206) 252-1300",
    "school": "Adams",
    "website": "http://adamses.seattleschools.org/",
    "address": "6110 28th Ave NW",
    "name": "Adams",
    "grade": "K - 5",
    "shape": {
      "needs_recoding": false,
      "longitude": "-122.39151959399999",
      "latitude": "47.67363214300008"
    },
    "type": "Elementary",
    "objectid": "1",
    "city": "Seattle"
  },
  {
    "zip": "98116",
    "phone": "(206) 252-9050",
    "school": "Alki",
    "website": "http://alkies.seattleschools.org/",
    "address": "3010 59th Ave SW",
    "name": "Alki",
    "grade": "K - 5",
    "shape": {
      "needs_recoding": false,
      "longitude": "-122.40782717099995",
      "latitude": "47.57714173900007"
    },
    "type": "Elementary",
    "objectid": "2",
    "city": "Seattle"
  },
  {
    "zip": "98146",
    "phone": "(206) 252-9250",
    "school": "Arbor Heights",
    "website": "http://arborheights.wikispaces.com/",
    "address": "3701 SW 104th St",
    "name": "Arbor Heights",
    "grade": "K - 5",
    "shape": {
      "needs_recoding": false,
      "longitude": "-122.37758780799999",
      "latitude": "47.509700363000036"
    },
    "type": "Elementary",
    "objectid": "3",
    "city": "Seattle"
  },
  {
    "zip": "98103",
    "phone": "(206) 252-5110",
    "school": "Bagley",
    "website": "http://www.danielbagley.com/",
    "address": "7821 Stone Ave N",
    "name": "Daniel Bagley",
    "grade": "K - 5",
    "shape": {
      "needs_recoding": false,
      "longitude": "-122.342304878",
      "latitude": "47.68635707200008"
    },
    "type": "Elementary",
    "objectid": "4",
    "city": "Seattle"
  },
  {
    "zip": "98115",
    "phone": "(206) 252-5200",
    "school": "Bryant",
    "website": "http://bryantes.seattleschools.org/",
    "address": "3311 NE 60th St",
    "name": "Bryant",
    "grade": "K - 5",
    "shape": {
      "needs_recoding": false,
      "longitude": "-122.29220552699996",
      "latitude": "47.67184192900004"
    },
    "type": "Elementary",
    "objectid": "5",
    "city": "Seattle"
  },
  {
    "zip": "98119",
    "phone": "(206) 252-2000",
    "school": "Coe",
    "website": "http://www.coeschool.org/",
    "address": "2424 7th Ave W",
    "name": "Frantz Coe",
    "grade": "K - 5",
    "shape": {
      "needs_recoding": false,
      "longitude": "-122.36559908799995",
      "latitude": "47.640515976000074"
    },
    "type": "Elementary",
    "objectid": "6",
    "city": "Seattle"
  },
  {
    "zip": "98108",
    "phone": "(206) 252-8100",
    "school": "Concord",
    "website": "http://concordes.seattleschools.org/",
    "address": "723 S Concord St",
    "name": "Concord International School",
    "grade": "K - 5",
    "shape": {
      "needs_recoding": false,
      "longitude": "-122.32469058999999",
      "latitude": "47.523610905000055"
    },
    "type": "Elementary",
    "objectid": "7",
    "city": "Seattle"
  },
  {
    "zip": "98103",
    "phone": "(206) 252-6010",
    "school": "B.F. Day",
    "website": "http://dayes.seattleschools.org/",
    "address": "3921 Linden Ave N",
    "name": "B.F. Day",
    "grade": "K - 5",
    "shape": {
      "needs_recoding": false,
      "longitude": "-122.34912372299999",
      "latitude": "47.654635461000055"
    },
    "type": "Elementary",
    "objectid": "8",
    "city": "Seattle"
  },
  {
    "zip": "98108",
    "phone": "(206) 252-6930",
    "school": "Dearborn Park",
    "website": "http://dearbornes.seattleschools.org/",
    "address": "2820 S Orcas St",
    "name": "Dearborn Park",
    "grade": "K - 5",
    "shape": {
      "needs_recoding": false,
      "longitude": "-122.29628698599998",
      "latitude": "47.55226236000004"
    },
    "type": "Elementary",
    "objectid": "9",
    "city": "Seattle"
  },
  {
    "zip": "98118",
    "phone": "(206) 252-7000",
    "school": "Dunlap",
    "website": "http://dunlapes.seattleschools.org/",
    "address": "4525 S Cloverdale St",
    "name": "Dunlap",
    "grade": "K - 5",
    "shape": {
      "needs_recoding": false,
      "longitude": "-122.274655656",
      "latitude": "47.52498919300007"
    },
    "type": "Elementary",
    "objectid": "10",
    "city": "Seattle"
  },
  {
    "zip": "98118",
    "phone": "(206) 252-7100",
    "school": "Emerson",
    "website": "http://emersones.seattleschools.org/",
    "address": "9709 60th Ave S",
    "name": "Emerson",
    "grade": "K - 5",
    "shape": {
      "needs_recoding": false,
      "longitude": "-122.25863615099996",
      "latitude": "47.51482046700005"
    },
    "type": "Elementary",
    "objectid": "11",
    "city": "Seattle"
  },
  {
    "zip": "98136",
    "phone": "(206) 252-9400",
    "school": "Gatewood",
    "website": "http://gatewoodes.seattleschools.org/",
    "address": "4320 SW Myrtle St",
    "name": "Gatewood",
    "grade": "K - 5",
    "shape": {
      "needs_recoding": false,
      "longitude": "-122.38849821499997",
      "latitude": "47.54025089100003"
    },
    "type": "Elementary",
    "objectid": "12",
    "city": "Seattle"
  },
  {
    "zip": "98122",
    "phone": "(206) 252-2810",
    "school": "Gatzert",
    "website": "http://gatzertes.seattleschools.org/",
    "address": "1301 E Yesler Way",
    "name": "Bailey Gatzert",
    "grade": "K - 5",
    "shape": {
      "needs_recoding": false,
      "longitude": "-122.31548471999997",
      "latitude": "47.601200522000056"
    },
    "type": "Elementary",
    "objectid": "13",
    "city": "Seattle"
  },
  {
    "zip": "98118",
    "phone": "(206) 252-7140",
    "school": "Graham Hill",
    "website": "http://grahamhilles.seattleschools.org/",
    "address": "5149 S Graham St",
    "name": "Graham Hill",
    "grade": "K - 5",
    "shape": {
      "needs_recoding": false,
      "longitude": "-122.26853423199998",
      "latitude": "47.54575730600004"
    },
    "type": "Elementary",
    "objectid": "14",
    "city": "Seattle"
  },
  {
    "zip": "98106",
    "phone": "(206) 252-5320",
    "school": "Green Lake",
    "website": "http://www.greenlakedragons.org/",
    "address": "2400 N 65th St",
    "name": "Green Lake",
    "grade": "K - 5",
    "shape": {
      "needs_recoding": false,
      "longitude": "-122.32849786799994",
      "latitude": "47.67630159300006"
    },
    "type": "Elementary",
    "objectid": "15",
    "city": "Seattle"
  },
  {
    "zip": "98117",
    "phone": "(206) 252-1400",
    "school": "Greenwood",
    "website": "http://www.greenwoodpta.org/",
    "address": "144 NW 80th St",
    "name": "Greenwood",
    "grade": "K - 5",
    "shape": {
      "needs_recoding": false,
      "longitude": "-122.35996030099994",
      "latitude": "47.687253902000066"
    },
    "type": "Elementary",
    "objectid": "16",
    "city": "Seattle"
  },
  {
    "zip": "98188",
    "phone": "(206) 252-7210",
    "school": "Hawthorne",
    "website": "http://hawthornees.seattleschools.org/",
    "address": "4100 39th Ave S",
    "name": "Hawthorne",
    "grade": "K - 5",
    "shape": {
      "needs_recoding": false,
      "longitude": "-122.28338622599995",
      "latitude": "47.565905187000055"
    },
    "type": "Elementary",
    "objectid": "17",
    "city": "Seattle"
  },
  {
    "zip": "98109",
    "phone": "(206) 252-2100",
    "school": "Hay",
    "website": "http://hayes.seattleschools.org/",
    "address": "201 Garfield St",
    "name": "John Hay",
    "grade": "K - 5",
    "shape": {
      "needs_recoding": false,
      "longitude": "-122.35171659599996",
      "latitude": "47.63289847800007"
    },
    "type": "Elementary",
    "objectid": "18",
    "city": "Seattle"
  },
  {
    "zip": "98106",
    "phone": "(206) 252-8240",
    "school": "Highland Park",
    "website": "http://highlandparkes.seattleschools.org/",
    "address": "1012 SW Trenton St",
    "name": "Highland Park",
    "grade": "K - 5",
    "shape": {
      "needs_recoding": false,
      "longitude": "-122.34827728099998",
      "latitude": "47.52517749700007"
    },
    "type": "Elementary",
    "objectid": "19",
    "city": "Seattle"
  },
  {
    "zip": "98116",
    "phone": "(206) 252-9500",
    "school": "Lafayette",
    "website": "http://www.mylafayette.org/",
    "address": "2645 California Ave SW",
    "name": "Lafayette",
    "grade": "K - 5",
    "shape": {
      "needs_recoding": false,
      "longitude": "-122.38723456499997",
      "latitude": "47.57949541100004"
    },
    "type": "Elementary",
    "objectid": "20",
    "city": "Seattle"
  },
  {
    "zip": "98105",
    "phone": "(206) 252-5400",
    "school": "Laurelhurst",
    "website": "http://laurelhurstes.seattleschools.org/",
    "address": "4530 46th Ave NE",
    "name": "Laurelhurst",
    "grade": "K - 5",
    "shape": {
      "needs_recoding": false,
      "longitude": "-122.27796308599994",
      "latitude": "47.66219802200004"
    },
    "type": "Elementary",
    "objectid": "21",
    "city": "Seattle"
  },
  {
    "zip": "98199",
    "phone": "(206) 252-2130",
    "school": "Lawton",
    "website": "http://lawtonelementary.org/",
    "address": "4000 27th Ave W",
    "name": "Lawton",
    "grade": "K - 5",
    "shape": {
      "needs_recoding": false,
      "longitude": "-122.390474515",
      "latitude": "47.656712414000026"
    },
    "type": "Elementary",
    "objectid": "22",
    "city": "Seattle"
  },
  {
    "zip": "98122",
    "phone": "(206) 252-2950",
    "school": "Leschi",
    "website": "http://www.leschischool.com/",
    "address": "135 32nd Ave",
    "name": "Leschi",
    "grade": "K - 5",
    "shape": {
      "needs_recoding": false,
      "longitude": "-122.291813634",
      "latitude": "47.60210319600003"
    },
    "type": "Elementary",
    "objectid": "23",
    "city": "Seattle"
  },
  {
    "zip": "98102",
    "phone": "(206) 252-3020",
    "school": "Lowell",
    "website": "http://lowelles.seattleschools.org/",
    "address": "1058 E Mercer St",
    "name": "Lowell",
    "grade": "K - 5",
    "shape": {
      "needs_recoding": false,
      "longitude": "-122.31837890599996",
      "latitude": "47.62442343300006"
    },
    "type": "Elementary",
    "objectid": "24",
    "city": "Seattle"
  },
  {
    "zip": "98103",
    "phone": "(206) 252-5914",
    "school": "Lowell APP",
    "website": "http://seattlenorthapp.org/",
    "address": "4400 Interlake Ave N",
    "name": "Lowell APP @ Lincoln",
    "grade": "K - 5",
    "shape": {
      "needs_recoding": false,
      "longitude": "-122.33962242799998",
      "latitude": "47.65996177400007"
    },
    "type": "Elementary",
    "objectid": "25",
    "city": "Seattle"
  },
  {
    "zip": "98117",
    "phone": "(206) 252-1500",
    "school": "Loyal Heights",
    "website": "http://loyalheightses.seattleschools.org/",
    "address": "2511 NW 80th St",
    "name": "Loyal Heights",
    "grade": "K - 5",
    "shape": {
      "needs_recoding": false,
      "longitude": "-122.38905045399997",
      "latitude": "47.686435438000046"
    },
    "type": "Elementary",
    "objectid": "26",
    "city": "Seattle"
  },
  {
    "zip": "98108",
    "phone": "(206) 252-8310",
    "school": "Maple",
    "website": "http://maplees.seattleschools.org/",
    "address": "4925 Corson Ave S",
    "name": "Maple",
    "grade": "K - 5",
    "shape": {
      "needs_recoding": false,
      "longitude": "-122.31889888599994",
      "latitude": "47.558125707000045"
    },
    "type": "Elementary",
    "objectid": "27",
    "city": "Seattle"
  },
  {
    "zip": "98144",
    "phone": "(206) 252-2800",
    "school": "Thurgood Marshall",
    "website": "http://marshalles.seattleschools.org/",
    "address": "2401 S Irving St",
    "name": "Thurgood Marshall",
    "grade": "K - 5",
    "shape": {
      "needs_recoding": false,
      "longitude": "-122.29984633999999",
      "latitude": "47.59095855000004"
    },
    "type": "Elementary",
    "objectid": "28",
    "city": "Seattle"
  },
  {
    "zip": "98118",
    "phone": "(206) 252-6770",
    "school": "MLK Jr.",
    "website": "http://kinges.seattleschools.org/",
    "address": "6725 45th Ave S",
    "name": "Martin Luther King Jr.",
    "grade": "K - 5",
    "shape": {
      "needs_recoding": false,
      "longitude": "-122.27691176399998",
      "latitude": "47.54174320000004"
    },
    "type": "Elementary",
    "objectid": "29",
    "city": "Seattle"
  },
  {
    "zip": "98103",
    "phone": "(206) 252-2900",
    "school": "McDonald",
    "website": "http://www.mcdonaldpta.org/",
    "address": "4400 Interlake Ave N",
    "name": "McDonald",
    "grade": "K - 5",
    "shape": {
      "needs_recoding": false,
      "longitude": "-122.33962242799998",
      "latitude": "47.65996177400007"
    },
    "type": "Elementary",
    "objectid": "30",
    "city": "Seattle"
  },
  {
    "zip": "98112",
    "phone": "(206) 252-3160",
    "school": "McGilvra",
    "website": "http://mcgilvraes.seattleschools.org/",
    "address": "1617 38th Ave E",
    "name": "McGilvra",
    "grade": "K - 5",
    "shape": {
      "needs_recoding": false,
      "longitude": "-122.28483181799999",
      "latitude": "47.63407773700004"
    },
    "type": "Elementary",
    "objectid": "31",
    "city": "Seattle"
  },
  {
    "zip": "98144",
    "phone": "(206) 252-7400",
    "school": "Muir",
    "website": "http://muires.seattleschools.org/",
    "address": "3301 S Horton St",
    "name": "John Muir",
    "grade": "K - 5",
    "shape": {
      "needs_recoding": false,
      "longitude": "-122.29057986899994",
      "latitude": "47.57324135300007"
    },
    "type": "Elementary",
    "objectid": "32",
    "city": "Seattle"
  },
  {
    "zip": "98117",
    "phone": "(206) 252-1510",
    "school": "North Beach",
    "website": "http://northbeaches.seattleschools.org/",
    "address": "9018 24th Ave NW",
    "name": "North Beach",
    "grade": "K - 5",
    "shape": {
      "needs_recoding": false,
      "longitude": "-122.38703547799997",
      "latitude": "47.69497451500007"
    },
    "type": "Elementary",
    "objectid": "33",
    "city": "Seattle"
  },
  {
    "zip": "98125",
    "phone": "(206) 252-4180",
    "school": "Northgate",
    "website": "http://northgatees.seattleschools.org/",
    "address": "11725 1st Ave NE",
    "name": "Northgate",
    "grade": "K - 5",
    "shape": {
      "needs_recoding": false,
      "longitude": "-122.32958502799994",
      "latitude": "47.714867154000046"
    },
    "type": "Elementary",
    "objectid": "34",
    "city": "Seattle"
  },
  {
    "zip": "98125",
    "phone": "(206) 252-4300",
    "school": "Olympic Hills",
    "website": "http://www.olympichills.org/",
    "address": "13018 20th Ave NE",
    "name": "Olympic Hills",
    "grade": "K - 5",
    "shape": {
      "needs_recoding": false,
      "longitude": "-122.30675543599995",
      "latitude": "47.72368616700004"
    },
    "type": "Elementary",
    "objectid": "35",
    "city": "Seattle"
  },
  {
    "zip": "98115",
    "phone": "(206) 252-5500",
    "school": "Olympic View",
    "website": "http://olympicviewes.seattleschools.org/",
    "address": "504 NE 95th St",
    "name": "Olympic View",
    "grade": "K - 5",
    "shape": {
      "needs_recoding": false,
      "longitude": "-122.32125785099998",
      "latitude": "47.69823172700006"
    },
    "type": "Elementary",
    "objectid": "36",
    "city": "Seattle"
  },
  {
    "zip": "98109",
    "phone": "(206) 252-2480",
    "school": "Queen Anne",
    "website": "http://www.queenanneelementary.com/",
    "address": "411 Boston St",
    "name": "Queen Anne",
    "grade": "K - 5",
    "shape": {
      "needs_recoding": false,
      "longitude": "-122.34896919299996",
      "latitude": "47.63796372400003"
    },
    "type": "Elementary",
    "objectid": "37",
    "city": "Seattle"
  },
  {
    "zip": "98125",
    "phone": "(206) 252-4320",
    "school": "Rogers",
    "website": "http://rogerses.seattleschools.org/",
    "address": "4030 NE 109th St",
    "name": "John Rogers",
    "grade": "K - 5",
    "shape": {
      "needs_recoding": false,
      "longitude": "-122.28463371899994",
      "latitude": "47.70742643500006"
    },
    "type": "Elementary",
    "objectid": "38",
    "city": "Seattle"
  },
  {
    "zip": "98178",
    "phone": "(206) 252-6700",
    "school": "Rainier View",
    "website": " ",
    "address": "11650 Beacon Ave S",
    "name": "Rainier View",
    "grade": "K - 5",
    "shape": {
      "needs_recoding": false,
      "longitude": "-122.26317206499999",
      "latitude": "47.49886332300008"
    },
    "type": "Elementary",
    "objectid": "39",
    "city": "Seattle"
  },
  {
    "zip": "98126",
    "phone": "(206) 252-9570",
    "school": "Roxhill",
    "website": "http://roxhilles.seattleschools.org/",
    "address": "9430 30th Ave SW",
    "name": "Roxhill",
    "grade": "K - 5",
    "shape": {
      "needs_recoding": false,
      "longitude": "-122.37055801899999",
      "latitude": "47.51805292800003"
    },
    "type": "Elementary",
    "objectid": "40",
    "city": "Seattle"
  },
  {
    "zip": "98115",
    "phone": "(206) 252-5550",
    "school": "Sacajawea",
    "website": "http://sacajaweaes.seattleschools.org/",
    "address": "9501 20th Ave NE",
    "name": "Sacajawea",
    "grade": "K - 5",
    "shape": {
      "needs_recoding": false,
      "longitude": "-122.30747271999996",
      "latitude": "47.69844855000008"
    },
    "type": "Elementary",
    "objectid": "41",
    "city": "Seattle"
  },
  {
    "zip": "98106",
    "phone": "(206) 252-8380",
    "school": "Sanislo",
    "website": "http://sanisloes.seattleschools.org/",
    "address": "1812 SW Myrtle St",
    "name": "Sanislo",
    "grade": "K - 5",
    "shape": {
      "needs_recoding": false,
      "longitude": "-122.35865807799996",
      "latitude": "47.53960839200005"
    },
    "type": "Elementary",
    "objectid": "42",
    "city": "Seattle"
  },
  {
    "zip": "98116",
    "phone": "(206) 252-9700",
    "school": "Schmitz Park",
    "website": "http://schmitzparkes.seattleschools.org/",
    "address": "5000 SW Spokane St",
    "name": "Schmitz Park",
    "grade": "K - 5",
    "shape": {
      "needs_recoding": false,
      "longitude": "-122.39673081499996",
      "latitude": "47.57268907300005"
    },
    "type": "Elementary",
    "objectid": "43",
    "city": "Seattle"
  },
  {
    "zip": "98105",
    "phone": "(206) 252-6080",
    "school": "John Stanford",
    "website": "http://stanfordes.seattleschools.org/",
    "address": "4057 5th Ave NE",
    "name": "John Stanford International School",
    "grade": "K - 5",
    "shape": {
      "needs_recoding": false,
      "longitude": "-122.32405186699998",
      "latitude": "47.657528253000066"
    },
    "type": "Elementary",
    "objectid": "44",
    "city": "Seattle"
  },
  {
    "zip": "98112",
    "phone": "(206) 252-3400",
    "school": "Stevens",
    "website": "http://stevenses.seattleschools.org/",
    "address": "1242 18th Ave E",
    "name": "Stevens",
    "grade": "K - 5",
    "shape": {
      "needs_recoding": false,
      "longitude": "-122.30760651899999",
      "latitude": "47.63149506800005"
    },
    "type": "Elementary",
    "objectid": "45",
    "city": "Seattle"
  },
  {
    "zip": "98115",
    "phone": "(206) 252-5300",
    "school": "Thornton Creek",
    "website": "http://thorntoncreekschool.org/",
    "address": "7711 43rd Ave NE",
    "name": "Thornton Creek",
    "grade": "K - 5",
    "shape": {
      "needs_recoding": false,
      "longitude": "-122.28266757999995",
      "latitude": "47.68503290500007"
    },
    "type": "Elementary",
    "objectid": "46",
    "city": "Seattle"
  },
  {
    "zip": "98118",
    "phone": "(206) 252-7500",
    "school": "Van Asselt",
    "website": "http://vanasseltes.seattleschools.org/",
    "address": "8311 Beacon Ave S",
    "name": "Van Asselt",
    "grade": "K - 5",
    "shape": {
      "needs_recoding": false,
      "longitude": "-122.28903550799998",
      "latitude": "47.52915162900007"
    },
    "type": "Elementary",
    "objectid": "47",
    "city": "Seattle"
  },
  {
    "zip": "98177",
    "phone": "(206) 252-4400",
    "school": "Viewlands",
    "website": " ",
    "address": "10525 3rd Ave NW",
    "name": "Viewlands",
    "grade": "K - 5",
    "shape": {
      "needs_recoding": false,
      "longitude": "-122.361129431",
      "latitude": "47.705972803000066"
    },
    "type": "Elementary",
    "objectid": "48",
    "city": "Seattle"
  },
  {
    "zip": "98115",
    "phone": "(206) 252-5600",
    "school": "View Ridge",
    "website": "http://viewridgees.seattleschools.org/",
    "address": "7047 50th Ave NE",
    "name": "View Ridge",
    "grade": "K - 5",
    "shape": {
      "needs_recoding": false,
      "longitude": "-122.27533215299997",
      "latitude": "47.68068710800003"
    },
    "type": "Elementary",
    "objectid": "49",
    "city": "Seattle"
  },
  {
    "zip": "98115",
    "phone": "(206) 252-5670",
    "school": "Wedgwood",
    "website": "http://wedgwoodes.seattleschools.org/",
    "address": "2720 NE 85th St",
    "name": "Wedgwood",
    "grade": "K - 5",
    "shape": {
      "needs_recoding": false,
      "longitude": "-122.29705383099997",
      "latitude": "47.69053804100008"
    },
    "type": "Elementary",
    "objectid": "50",
    "city": "Seattle"
  },
  {
    "zip": "98126",
    "phone": "(206) 252-9450",
    "school": "West Seattle",
    "website": "http://westseattlees.seattleschools.org/",
    "address": "6760 34th Ave SW",
    "name": "West Seattle",
    "grade": "K - 5",
    "shape": {
      "needs_recoding": false,
      "longitude": "-122.373492683",
      "latitude": "47.54176186900003"
    },
    "type": "Elementary",
    "objectid": "51",
    "city": "Seattle"
  },
  {
    "zip": "98117",
    "phone": "(206) 252-1650",
    "school": "Whittier",
    "website": "http://whittieres.seattleschools.org/",
    "address": "1320 NW 75th St",
    "name": "Whittier",
    "grade": "K - 5",
    "shape": {
      "needs_recoding": false,
      "longitude": "-122.37307537999999",
      "latitude": "47.68358983100006"
    },
    "type": "Elementary",
    "objectid": "52",
    "city": "Seattle"
  },
  {
    "zip": "98118",
    "phone": "(206) 252-7630",
    "school": "Wing Luke",
    "website": "http://lukees.seattleschools.org/",
    "address": "3701 S Kenyon St",
    "name": "Wing Luke",
    "grade": "K - 5",
    "shape": {
      "needs_recoding": false,
      "longitude": "-122.28490601399994",
      "latitude": "47.530739348000054"
    },
    "type": "Elementary",
    "objectid": "53",
    "city": "Seattle"
  },
  {
    "zip": "98125",
    "phone": "(206) 252-4500",
    "school": "Jane Addams",
    "website": "http://addamsk8.seattleschools.org/",
    "address": "11051 34th Ave NE",
    "name": "Jane Addams",
    "grade": "K - 8",
    "shape": {
      "needs_recoding": false,
      "longitude": "-122.29300903699999",
      "latitude": "47.70994486400008"
    },
    "type": "K - 8",
    "objectid": "54",
    "city": "Seattle"
  },
  {
    "zip": "98199",
    "phone": "(206) 252-1920",
    "school": "Blaine",
    "website": "http://blainek8.seattleschools.org/",
    "address": "2550 34th Ave W",
    "name": "Catharine Blaine",
    "grade": "K - 8",
    "shape": {
      "needs_recoding": false,
      "longitude": "-122.39926244199995",
      "latitude": "47.642257347000054"
    },
    "type": "K - 8",
    "objectid": "55",
    "city": "Seattle"
  },
  {
    "zip": "98133",
    "phone": "(206) 252-4080",
    "school": "Broadview - Thomson",
    "website": "http://broadviewk8.seattleschools.org/",
    "address": "13052 Greenwood Ave N",
    "name": "Broadview - Thomson",
    "grade": "K - 8",
    "shape": {
      "needs_recoding": false,
      "longitude": "-122.35314865899994",
      "latitude": "47.72463109800003"
    },
    "type": "K - 8",
    "objectid": "56",
    "city": "Seattle"
  },
  {
    "zip": "98122",
    "phone": "(206) 252-3100",
    "school": "Madrona",
    "website": "http://madronak8.seattleschools.org/",
    "address": "1121 33rd Ave",
    "name": "Madrona",
    "grade": "K - 8",
    "shape": {
      "needs_recoding": false,
      "longitude": "-122.29086888999996",
      "latitude": "47.61223677300006"
    },
    "type": "K - 8",
    "objectid": "57",
    "city": "Seattle"
  },
  {
    "zip": "98118",
    "phone": "(206) 252-6900",
    "school": "Orca",
    "website": "http://orcak8.seattleschools.org/",
    "address": "5215 46th Ave S",
    "name": "Orca",
    "grade": "K - 8",
    "shape": {
      "needs_recoding": false,
      "longitude": "-122.27595641999994",
      "latitude": "47.55477872900008"
    },
    "type": "K - 8",
    "objectid": "58",
    "city": "Seattle"
  },
  {
    "zip": "98106",
    "phone": "(206) 252-9710",
    "school": "Pathfinder",
    "website": "http://pathfinderk8.seattleschools.org/",
    "address": "1901 SW Genesee St",
    "name": "Pathfinder",
    "grade": "K - 8",
    "shape": {
      "needs_recoding": false,
      "longitude": "-122.35799713299997",
      "latitude": "47.56360479700004"
    },
    "type": "K - 8",
    "objectid": "59",
    "city": "Seattle"
  },
  {
    "zip": "98125",
    "phone": "(206) 252-4600",
    "school": "Pinehurst",
    "website": "http://pinehurstk8.seattleschools.org/",
    "address": "11530 12th Ave NE",
    "name": "Pinehurst",
    "grade": "K - 8",
    "shape": {
      "needs_recoding": false,
      "longitude": "-122.31465833499999",
      "latitude": "47.713430241000026"
    },
    "type": "K - 8",
    "objectid": "60",
    "city": "Seattle"
  },
  {
    "zip": "98117",
    "phone": "(206) 252-1720",
    "school": "Salmon Bay",
    "website": "http://www.salmonbayschool.org/",
    "address": "1810 NW 65th St",
    "name": "Salmon Bay",
    "grade": "K - 8",
    "shape": {
      "needs_recoding": false,
      "longitude": "-122.38051207799998",
      "latitude": "47.67629742100007"
    },
    "type": "K - 8",
    "objectid": "61",
    "city": "Seattle"
  },
  {
    "zip": "98118",
    "phone": "(206) 252-7600",
    "school": "South Shore",
    "website": "http://sites.google.com/site/southshoreseadragons/",
    "address": "4800 S Henderson St",
    "name": "South Shore",
    "grade": "K - 8",
    "shape": {
      "needs_recoding": false,
      "longitude": "-122.27200912399996",
      "latitude": "47.523742938000055"
    },
    "type": "K - 8",
    "objectid": "62",
    "city": "Seattle"
  },
  {
    "zip": "98102",
    "phone": "(206) 252-3510",
    "school": "TOPS",
    "website": "http://www.topsk8.org/",
    "address": "2500 Franklin Ave E",
    "name": "TOPS at Seward",
    "grade": "K - 8",
    "shape": {
      "needs_recoding": false,
      "longitude": "-122.32417848299997",
      "latitude": "47.64228685200004"
    },
    "type": "K - 8",
    "objectid": "63",
    "city": "Seattle"
  },
  {
    "zip": "98126",
    "phone": "(206) 252-9000",
    "school": "Denny",
    "website": "http://dennyms.seattleschools.org/",
    "address": "2601 SW Kenyon St",
    "name": "Denny International",
    "grade": "6 - 8",
    "shape": {
      "needs_recoding": false,
      "longitude": "-122.36619522399997",
      "latitude": "47.53172773600005"
    },
    "type": "Middle",
    "objectid": "64",
    "city": "Seattle"
  },
  {
    "zip": "98115",
    "phone": "(206) 252-5010",
    "school": "Eckstein",
    "website": "http://ecksteineagles.org/",
    "address": "3003 NE 75th St",
    "name": "Eckstein",
    "grade": "6 - 8",
    "shape": {
      "needs_recoding": false,
      "longitude": "-122.29498267099996",
      "latitude": "47.682520089000036"
    },
    "type": "Middle",
    "objectid": "65",
    "city": "Seattle"
  },
  {
    "zip": "98103",
    "phone": "(206) 252-5810",
    "school": "Hamilton",
    "website": "http://hamiltonms.seattleschools.org/",
    "address": "1610 N 41th St",
    "name": "Hamilton International",
    "grade": "6 - 8",
    "shape": {
      "needs_recoding": false,
      "longitude": "-122.33802753499998",
      "latitude": "47.65708002800005"
    },
    "type": "Middle",
    "objectid": "66",
    "city": "Seattle"
  },
  {
    "zip": "98118",
    "phone": "(206) 252-7700",
    "school": "Aki Kurose",
    "website": "http://www.akikuroseacademy.org/",
    "address": "3928 S Graham St",
    "name": "Aki Kurose Academy",
    "grade": "6 - 8",
    "shape": {
      "needs_recoding": false,
      "longitude": "-122.28198038299996",
      "latitude": "47.54632185600008"
    },
    "type": "Middle",
    "objectid": "67",
    "city": "Seattle"
  },
  {
    "zip": "98116",
    "phone": "(206) 252-9200",
    "school": "Madison",
    "website": "http://madisonms.seattleschools.org/",
    "address": "3429 45th Ave SW",
    "name": "Madison",
    "grade": "6 - 8",
    "shape": {
      "needs_recoding": false,
      "longitude": "-122.39027970299998",
      "latitude": "47.57298063200005"
    },
    "type": "Middle",
    "objectid": "68",
    "city": "Seattle"
  },
  {
    "zip": "98119",
    "phone": "(206) 252-1900",
    "school": "McClure",
    "website": "http://mcclurems.seattleschools.org/",
    "address": "1915 1st Ave W",
    "name": "McClure",
    "grade": "6 - 8",
    "shape": {
      "needs_recoding": false,
      "longitude": "-122.35895522299995",
      "latitude": "47.636826273000054"
    },
    "type": "Middle",
    "objectid": "69",
    "city": "Seattle"
  },
  {
    "zip": "98108",
    "phone": "(206) 252-8000",
    "school": "Mercer",
    "website": "http://asamercer.org/",
    "address": "1600 S Columbian Wy",
    "name": "Asa Mercer",
    "grade": "6 - 8",
    "shape": {
      "needs_recoding": false,
      "longitude": "-122.31208319499996",
      "latitude": "47.56413274800008"
    },
    "type": "Middle",
    "objectid": "70",
    "city": "Seattle"
  },
  {
    "zip": "98144",
    "phone": "(206) 252-2600",
    "school": "Washington",
    "website": "http://www.wmsptsa.com/",
    "address": "2101 S Jackson St",
    "name": "Washington",
    "grade": "6 - 8",
    "shape": {
      "needs_recoding": false,
      "longitude": "-122.30414977399994",
      "latitude": "47.59795569200003"
    },
    "type": "Middle",
    "objectid": "71",
    "city": "Seattle"
  },
  {
    "zip": "98117",
    "phone": "(206) 252-1200",
    "school": "Whitman",
    "website": "http://whitmanms.seattleschools.org/",
    "address": "9201 15th Ave NW",
    "name": "Whitman",
    "grade": "6 - 8",
    "shape": {
      "needs_recoding": false,
      "longitude": "-122.37760191299998",
      "latitude": "47.69675145100007"
    },
    "type": "Middle",
    "objectid": "72",
    "city": "Seattle"
  },
  {
    "zip": "98117",
    "phone": "(206) 252-1000",
    "school": "Ballard",
    "website": "http://ballardhs.seattleschools.org/",
    "address": "1418 NW 65th St",
    "name": "Ballard",
    "grade": "9 - 12",
    "shape": {
      "needs_recoding": false,
      "longitude": "-122.374888667",
      "latitude": "47.67661077000008"
    },
    "type": "High",
    "objectid": "73",
    "city": "Seattle"
  },
  {
    "zip": "98109",
    "phone": "(206) 252-9850",
    "school": "Center",
    "website": "http://centerhs.seattleschools.org/",
    "address": "305 Harrison St",
    "name": "The Center School",
    "grade": "9 - 12",
    "shape": {
      "needs_recoding": false,
      "longitude": "-122.35398171599996",
      "latitude": "47.622079263000046"
    },
    "type": "High",
    "objectid": "74",
    "city": "Seattle"
  },
  {
    "zip": "98126",
    "phone": "(206) 252-8550",
    "school": "Chief Sealth",
    "website": "http://chiefsealthhs.seattleschools.org/",
    "address": "2600 SW Thistle St",
    "name": "Chief Sealth International",
    "grade": "9 - 12",
    "shape": {
      "needs_recoding": false,
      "longitude": "-122.36615479599999",
      "latitude": "47.52863205300008"
    },
    "type": "High",
    "objectid": "75",
    "city": "Seattle"
  },
  {
    "zip": "98108",
    "phone": "(206) 252-7800",
    "school": "Cleveland",
    "website": "http://clevelandhs.seattleschools.org/",
    "address": "5511 15th Ave S",
    "name": "Cleveland - STEM",
    "grade": "9 - 12",
    "shape": {
      "needs_recoding": false,
      "longitude": "-122.31391191399996",
      "latitude": "47.552372079000065"
    },
    "type": "High",
    "objectid": "76",
    "city": "Seattle"
  },
  {
    "zip": "98144",
    "phone": "(206) 252-6150",
    "school": "Franklin",
    "website": "http://franklinhs.seattleschools.org/",
    "address": "3013 S Mt Baker Blvd",
    "name": "Franklin",
    "grade": "9 - 12",
    "shape": {
      "needs_recoding": false,
      "longitude": "-122.29364640999995",
      "latitude": "47.575887667000075"
    },
    "type": "High",
    "objectid": "77",
    "city": "Seattle"
  },
  {
    "zip": "98122",
    "phone": "(206) 252-2270",
    "school": "Garfield",
    "website": "http://garfieldhs.seattleschools.org/",
    "address": "400 23rd Ave",
    "name": "Garfield",
    "grade": "9 - 12",
    "shape": {
      "needs_recoding": false,
      "longitude": "-122.30190469099995",
      "latitude": "47.60541951400006"
    },
    "type": "High",
    "objectid": "78",
    "city": "Seattle"
  },
  {
    "zip": "98125",
    "phone": "(206) 252-3680",
    "school": "Nathan Hale",
    "website": "http://halehighschool.info/",
    "address": "10750 30th Ave NE",
    "name": "Nathan Hale",
    "grade": "9 - 12",
    "shape": {
      "needs_recoding": false,
      "longitude": "-122.29453071899997",
      "latitude": "47.707628612000065"
    },
    "type": "High",
    "objectid": "79",
    "city": "Seattle"
  },
  {
    "zip": "98133",
    "phone": "(206) 252-3880",
    "school": "Ingraham",
    "website": "http://ingrahamhs.seattleschools.org/",
    "address": "1819 N 135th St",
    "name": "Ingraham",
    "grade": "9 - 12",
    "shape": {
      "needs_recoding": false,
      "longitude": "-122.33683812299995",
      "latitude": "47.72569938400005"
    },
    "type": "High",
    "objectid": "80",
    "city": "Seattle"
  },
  {
    "zip": "98112",
    "phone": "(206) 252-3500",
    "school": "Nova",
    "website": "http://novahs.seattleschools.org/",
    "address": "300 20th Ave E",
    "name": "Nova",
    "grade": "9 - 12",
    "shape": {
      "needs_recoding": false,
      "longitude": "-122.30547139899994",
      "latitude": "47.62265555000005"
    },
    "type": "High",
    "objectid": "81",
    "city": "Seattle"
  },
  {
    "zip": "98118",
    "phone": "(206) 252-6350",
    "school": "Rainier Beach",
    "website": "http://rainierbeachhs.seattleschools.org",
    "address": "8815 Seward Park S",
    "name": "Rainier Beach",
    "grade": "9 - 12",
    "shape": {
      "needs_recoding": false,
      "longitude": "-122.26585898499997",
      "latitude": "47.52407076900005"
    },
    "type": "High",
    "objectid": "82",
    "city": "Seattle"
  },
  {
    "zip": "98115",
    "phone": "(206) 252-4810",
    "school": "Roosevelt",
    "website": "http://www.rhsseattle.org/",
    "address": "1410 NE 66th St",
    "name": "Roosevelt",
    "grade": "9 - 12",
    "shape": {
      "needs_recoding": false,
      "longitude": "-122.31280954399995",
      "latitude": "47.67723138500003"
    },
    "type": "High",
    "objectid": "83",
    "city": "Seattle"
  },
  {
    "zip": "98116",
    "phone": "(206) 252-8800",
    "school": "West Seattle",
    "website": "http://westseattlehs.seattleschools.org/",
    "address": "3000 California Ave SW",
    "name": "West Seattle",
    "grade": "9 - 12",
    "shape": {
      "needs_recoding": false,
      "longitude": "-122.38459096599996",
      "latitude": "47.576779685000076"
    },
    "type": "High",
    "objectid": "84",
    "city": "Seattle"
  },
  {
    "zip": "98144",
    "phone": "(206) 252-2700",
    "school": "Beacon Hill",
    "website": "http://www.beaconhillinternationalschool.org/",
    "address": "2025 14th Ave S",
    "name": "Beacon Hill International School",
    "grade": "K - 5",
    "shape": {
      "needs_recoding": false,
      "longitude": "-122.31510488899994",
      "latitude": "47.585469215000046"
    },
    "type": "Elementary",
    "objectid": "85",
    "city": "Seattle"
  },
  {
    "zip": "98144",
    "phone": "(206) 252-7280",
    "school": "Kimball",
    "website": "http://www.kimballcougars.org/Kimball/Welcome.html",
    "address": "3200 23rd Ave S",
    "name": "Kimball",
    "grade": "K - 5",
    "shape": {
      "needs_recoding": false,
      "longitude": "-122.30301449399997",
      "latitude": "47.57404525800007"
    },
    "type": "Elementary",
    "objectid": "86",
    "city": "Seattle"
  },
  {
    "zip": "98112",
    "phone": "(206) 252-3300",
    "school": "Montlake",
    "website": "http://montlakees.seattleschools.org/",
    "address": "2409 22nd Ave E",
    "name": "Montlake",
    "grade": "K - 5",
    "shape": {
      "needs_recoding": false,
      "longitude": "-122.30428418799994",
      "latitude": "47.640632639000046"
    },
    "type": "Elementary",
    "objectid": "87",
    "city": "Seattle"
  },
  {
    "zip": "98115",
    "phone": "(206) 252-4640",
    "school": "Sand Point",
    "website": "http://sandpointes.seattleschools.org/",
    "address": "6208 60th Ave NE",
    "name": "Sand Point",
    "grade": "K - 5",
    "shape": {
      "needs_recoding": false,
      "longitude": "-122.26293321399999",
      "latitude": "47.67365154500004"
    },
    "type": "Elementary",
    "objectid": "88",
    "city": "Seattle"
  },
  {
    "zip": "98107",
    "phone": "(206) 252-1600",
    "school": "West Woodland",
    "website": "http://www.westwoodlandes.seattleschools.org/",
    "address": "5601 4th Ave NW",
    "name": "West Woodland",
    "grade": "K - 5",
    "shape": {
      "needs_recoding": false,
      "longitude": "-122.36224677699994",
      "latitude": "47.67059930900007"
    },
    "type": "Elementary",
    "objectid": "89",
    "city": "Seattle"
  }
]